[
  {
    "id": 213,
    "name": "El Nido, Palawan",
    "imageUrl": "https://raw.githubusercontent.com/markleygiron/Markley/master/11.jpg",
    "price": 888,
    "priceCurrency": "km",
    "lat": 11.178463,
    "lng": 119.391461
  },
  {
    "id": 201,
    "name": "Boracay Island, Aklan",
    "imageUrl": "https://raw.githubusercontent.com/markleygiron/Markley/master/12.jpg",
    "priceCurrency": "km",
    "price": 714,
    "lat": 11.967360,
    "lng": 121.924836
  },
  {
    "id": 211,
    "name": "Camiguin Island, Camiguin",
    "imageUrl": "https://raw.githubusercontent.com/markleygiron/Markley/master/14.jpg",
    "price": 1349,
    "priceCurrency": "km",
    "lat": 9.172815,
    "lng": 124.729884
  },
  {
    "id": 205,
    "name": "Langun Gobingob Caves, Samar",
    "imageUrl": "https://raw.githubusercontent.com/markleygiron/Markley/master/555.jpg",
    "price": 1103,
    "priceCurrency": "km",
    "lat": 11.925269,
    "lng": 125.041047
  },
  {
    "id": 210,
    "name": "Chocolate Hills, Bohol",
    "imageUrl": "https://raw.githubusercontent.com/markleygiron/Markley/master/666.jpg",
    "price": 1197,
    "priceCurrency": "km",
    "lat": 11.114396,
    "lng": 124.249453
  },
  {
    "id": 212,
    "name": "Mount Apo, Mindanao",
    "imageUrl": "https://raw.githubusercontent.com/markleygiron/Markley/master/17.jpg",
    "price": 1898,
    "priceCurrency": "km",
    "lat": 6.984401,
    "lng": 125.271195
  },
  {
    "id": 214,
    "name": "Puerto Princesa, Palawan",
    "imageUrl": "https://raw.githubusercontent.com/markleygiron/Markley/master/28.jpg",
    "price": 1039,
    "priceCurrency": "km",
    "lat": 9.769649,
    "lng": 118.748853
  },
  {
    "id": 215,
    "name": "Banaue Rice Terraces, Ifugao",
    "imageUrl": "https://raw.githubusercontent.com/markleygiron/Markley/master/29.jpg",
    "price": 240,
    "priceCurrency": "km",
    "lat": 16.923944,
    "lng": 121.055661
  },
  {
    "id": 145,
    "name": "Intramuros and Rizal Park, Manila",
    "imageUrl": "https://raw.githubusercontent.com/markleygiron/Markley/master/888.jpg",
    "priceCurrency": "km",
    "price": 271,
    "lat": 8.849957,
    "lng": 119.933333
  },
  {
    "id": 148,
    "name": "Coron, Palawan",
    "imageUrl": "https://raw.githubusercontent.com/markleygiron/Markley/master/111.jpg",
    "priceCurrency": "km",
    "price": 715,
    "lat": 12.000977,
    "lng": 120.197755
  },
  {
    "id": 216,
    "name": "Hinatuan Enchanted River, Surigao Del Sur",
    "imageUrl": "https://raw.githubusercontent.com/markleygiron/Markley/master/222.jpg",
    "priceCurrency": "km",
    "price": 1618,
    "lat": 8.458094,
    "lng": 126.354647
  },
  {
    "id": 217,
    "name": "Mayon Volcano, Albay",
    "imageUrl": "https://raw.githubusercontent.com/markleygiron/Markley/master/333.jpg",
    "priceCurrency": "km",
    "price": 763,
    "lat": 13.254829,
    "lng": 123.686112
  },
 {
    "id": 145,
    "name": "My House",
    "imageUrl": "https://github.com/coilyn/senth2/blob/master/Flat7.jpg?raw=true",
    "price": 0,
    "priceCurrency": "Philippine PESO",
    "lat": 16.579032,
    "lng": 120.326203
  }
  
  
]
