[
  {
    "id": 145,
     "name": "Tangadan Falls",
    "imageUrl": "https://raw.githubusercontent.com/markleygiron/Markley/master/msg1.jpg",
    "price": 0,
    "priceCurrency": "PHP",
    "lat": 16.643372, 
    "lng": 120.448705
  },
  {
    "id": 148,
    "name": "San Juan Surf Resort",
    "imageUrl": "https://raw.githubusercontent.com/markleygiron/Markley/master/msg2.jpg",
    "price": 0,
    "priceCurrency": "PHP",
    "lat": 16.643372, 
    "lng": 120.448705
  },
  {
    "id": 201,
    "name": "Thunderbird Resort Poro Point",
    "imageUrl": "https://raw.githubusercontent.com/markleygiron/Markley/master/msg3.jpg",
    "price": 0,
    "priceCurrency": "PHP",
    "lat": 16.8308,
    "lng": 120.3551
  },
  {
    "id": 205,
    "name": "Bahay Na Bato",
    "imageUrl": "https://raw.githubusercontent.com/markleygiron/Markley/master/msg4.jpg",
    "price": 0,
    "priceCurrency": "PHP",
    "lat": 16.461241, 
    "lng": 120.334108
  },
  {
    "id": 210,
    "name": "Ma=Cho Temple",
    "imageUrl": "https://raw.githubusercontent.com/markleygiron/Markley/master/msg5.JPG",
    "price": 0,
    "priceCurrency": "PHP",
    "lat": 16.614827,
    "lng": 120.280465
  },
  {
    "id": 211,
    "name": "Home",
    "imageUrl": "https://raw.githubusercontent.com/Chokybells/Syaki/master/ts/ts7.jpg",
    "price": 0,
    "priceCurrency": "PHP",
    "lat": 16.857375,
    "lng": 120.380578
  }
  
]
