[
  {
    "id": 145,
    "name": "Bahay Na Bato",
    "imageUrl": "https://raw.githubusercontent.com/Chokybells/Syaki/master/ts/ts1.JPG",
    "price": 0,
    "priceCurrency": "PHP",
    "lat": 16.846952,
    "lng": 120.351677
  },
  {
    "id": 148,
    "name": "Tangadan Falls",
    "imageUrl": "https://raw.githubusercontent.com/Chokybells/Syaki/master/ts/ts2.jpeg",
    "price": 0,
    "priceCurrency": "PHP",
    "lat": 16.643372, 
    "lng": 120.448705
  },
  {
    "id": 201,
    "name": "Baluarte",
    "imageUrl": "https://raw.githubusercontent.com/Chokybells/Syaki/master/ts/ts3.jpg",
    "price": 0,
    "priceCurrency": "PHP",
    "lat": 16.8308,
    "lng": 120.3551
  },
  {
    "id": 205,
    "name": "Grapes Farm",
    "imageUrl": "https://raw.githubusercontent.com/Chokybells/Syaki/master/ts/ts4.jpg",
    "price": 0,
    "priceCurrency": "PHP",
    "lat": 16.461241, 
    "lng": 120.334108
  },
  {
    "id": 210,
    "name": "Lighthouse",
    "imageUrl": "https://raw.githubusercontent.com/Chokybells/Syaki/master/ts/ts5.jpg",
    "price": 0,
    "priceCurrency": "PHP",
    "lat": 16.614827,
    "lng": 120.280465
  },
  {
    "id": 211,
    "name": "Home",
    "imageUrl": "https://raw.githubusercontent.com/Chokybells/Syaki/master/ts/ts7.jpg",
    "price": 0,
    "priceCurrency": "PHP",
    "lat": 16.857375,
    "lng": 120.380578
  }
  
]
