[
  {
    "id": 145,
     "name": "Tangadan Falls",
    "imageUrl": "https://raw.githubusercontent.com/markleygiron/Markley/master/msg1.jpg",
    "price": 0,
    "priceCurrency": "PHP",
    "lat": 16.643372,
    "lng": 120.448705
  },
  {
    "id": 148,
    "name": "San Juan Surf Resort",
    "imageUrl": "https://raw.githubusercontent.com/markleygiron/Markley/master/msg2.jpg",
    "price": 0,
    "priceCurrency": "PHP",
    "lat": 16.6571, 
    "lng": 120.3202
  },
  {
    "id": 201,
    "name": "Thunderbird Resorts Poro Point",
    "imageUrl": "https://raw.githubusercontent.com/markleygiron/Markley/master/msg3.jpg",
    "price": 100,
    "priceCurrency": "PHP",
    "lat": 16.8308,
    "lng": 120.3551
  },
  {
    "id": 205,
    "name": "Bahay Na Bato",
    "imageUrl": "https://raw.githubusercontent.com/markleygiron/Markley/master/msg4.jpg",
    "price": 0,
    "priceCurrency": "PHP",
    "lat": 16.847255,
    "lng": 120.351556
  },
  {
    "id": 210,
    "name": "Ma-Cho Temple",
    "imageUrl": "https://raw.githubusercontent.com/markleygiron/Markley/master/msg5.JPG",
    "price": 0,
    "priceCurrency": "PHP",
    "lat": 16.621185,
    "lng": 120.317510
  },
  {
    "id": 211,
    "name": "Home",
    "imageUrl": "https://raw.githubusercontent.com/Chokybells/Syaki/master/ts/ts7.jpg",
    "price": 0,
    "priceCurrency": "PHP",
    "lat": 16.613524,
    "lng": 120.331632
  }
  
]
