[
  {
    "id": 213,
    "name": "El Nido, Palawan",
    "imageUrl": "https://raw.githubusercontent.com/markleygiron/Markley/master/11.jpg",
    "price": 200,
    "priceCurrency": "₱",
    "lat": 11.178463,
    "lng": 119.391461
  },
  {
    "id": 201,
    "name": "Boracay Island, Aklan",
    "imageUrl": "https://raw.githubusercontent.com/markleygiron/Markley/master/12.jpg",
    "priceCurrency": "₱",
    "price": 100.00,
    "lat": 11.967360,
    "lng": 121.924836
  },
  {
    "id": 148,
    "name": "Coron, Palawan",
    "imageUrl": "https://raw.githubusercontent.com/markleygiron/Markley/master/111.jpg",
    "priceCurrency": "₱",
    "price": 0,
    "lat": 12.000977,
    "lng": 120.197755
  },
  {
    "id": 211,
    "name": "Camiguin Island, Camiguin",
    "imageUrl": "https://raw.githubusercontent.com/markleygiron/Markley/master/14.jpg",
    "price": 0,
    "priceCurrency": "₱",
    "lat": 9.172815,
    "lng": 124.729884
  },
  {
    "id": 205,
    "name": "Malapascua Island, Cebu",
    "imageUrl": "https://raw.githubusercontent.com/markleygiron/Markley/master/15.jpg",
    "price": 20.00,
    "priceCurrency": "₱",
    "lat": 11.335828,
    "lng": 124.115640
  },
  {
    "id": 210,
    "name": "Kalanggaman Island, Leyte",
    "imageUrl": "https://raw.githubusercontent.com/markleygiron/Markley/master/16.jpg",
    "price": 0,
    "priceCurrency": "₱",
    "lat": 11.114396,
    "lng": 124.249453
  },
  {
    "id": 212,
    "name": "Siargao Island, Surigao del Norte",
    "imageUrl": "https://raw.githubusercontent.com/markleygiron/Markley/master/17.jpg",
    "price": 0,
    "priceCurrency": "₱",
    "lat": 9.848129,
    "lng": 126.045785
  },
  {
    "id": 214,
    "name": "Puerto Princesa, Palawan",
    "imageUrl": "https://raw.githubusercontent.com/markleygiron/Markley/master/28.jpg",
    "price": 0,
    "priceCurrency": "₱",
    "lat": 9.769649,
    "lng": 118.748853
  },
  {
    "id": 215,
    "name": "Banaue Rice Terraces, Ifugao",
    "imageUrl": "https://raw.githubusercontent.com/markleygiron/Markley/master/29.jpg",
    "price": 0,
    "priceCurrency": "₱",
    "lat": 16.923944,
    "lng": 121.055661
  },
  {
    "id": 145,
    "name": "Tubbataha Reefs, Palawan",
    "imageUrl": "https://raw.githubusercontent.com/markleygiron/Markley/master/30.jpg",
    "priceCurrency": "₱",
    "price": 20,
    "lat": 8.849957,
    "lng": 119.933333
  },
  {
    "id": 216,
    "name": "Hinatuan Enchanted River, Surigao Del Sur",
    "imageUrl": "https://raw.githubusercontent.com/markleygiron/Markley/master/222.jpg",
    "priceCurrency": "₱",
    "price": 20,
    "lat": 8.458094,
    "lng": 126.354647
  },
  {
    "id": 217,
    "name": "Mayon Volcano, Albay",
    "imageUrl": "https://raw.githubusercontent.com/markleygiron/Markley/master/333.jpg",
    "priceCurrency": "₱",
    "price": 20,
    "lat": 13.254829,
    "lng": 123.686112
  
  
  
]
