[
  {
    "id": 145,
    "name": "Tangadan Falls",
    "imageUrl": "https://raw.githubusercontent.com/markleygiron/Markley/master/a.jpg",
    "priceCurrency": "₱",
    "price": 20,
    "lat": 16.643372,
    "lng": 120.448705
  },
  {
    "id": 148,
    "name": "San Juan Surf Resort",
    "imageUrl": "https://raw.githubusercontent.com/markleygiron/Markley/master/msg2.jpg",
    "priceCurrency": "₱",
    "price": 0,
    "lat": 16.6571, 
    "lng": 120.3202
  },
  {
    "id": 201,
    "name": "Thunderbird Resorts Poro Point",
    "imageUrl": "https://raw.githubusercontent.com/markleygiron/Markley/master/msg3.jpg",
    "priceCurrency": "₱",
    "price": 100.00,
    "lat": 16.609093,
    "lng": 120.286326
  },
  {
    "id": 205,
    "name": "Bahay Na Bato",
    "imageUrl": "https://raw.githubusercontent.com/markleygiron/Markley/master/msg4.jpg",
    "price": 20.00,
    "priceCurrency": "₱",
    "lat": 16.847255,
    "lng": 120.351556
  },
  {
    "id": 210,
    "name": "Ma-Cho Temple",
    "imageUrl": "https://raw.githubusercontent.com/markleygiron/Markley/master/msg5.JPG",
    "price": 0,
    "priceCurrency": "₱",
    "lat": 16.621185,
    "lng": 120.317510
  },
  {
    "id": 211,
    "name": "Baluarte Watch Tower",
    "imageUrl": "https://raw.githubusercontent.com/markleygiron/Markley/master/d.jpg",
    "price": 0,
    "priceCurrency": "₱",
    "lat": 16.856767,
    "lng": 120.372861
  },
  {
    "id": 212,
    "name": "Old Lighthouse",
    "imageUrl": "https://raw.githubusercontent.com/markleygiron/Markley/master/f.jpg",
    "price": 0,
    "priceCurrency": "₱",
    "lat": 16.614796,
    "lng": 120.280463
  },
  {
    "id": 213,
    "name": "Pugo Adventure",
    "imageUrl": "https://raw.githubusercontent.com/markleygiron/Markley/master/e.jpg",
    "price": 0,
    "priceCurrency": "₱",
    "lat": 16.321309,
    "lng": 120.476085
  },
  {
    "id": 214,
    "name": "Halo-Halo de Iloko",
    "imageUrl": "https://raw.githubusercontent.com/markleygiron/Markley/master/c.jpg",
    "price": 0,
    "priceCurrency": "₱",
    "lat": 16.617243,
    "lng": 120.319803
  },
  {
    "id": 215,
    "name": "Gapuz Grapes Farm",
    "imageUrl": "https://raw.githubusercontent.com/markleygiron/Markley/master/b.jpg",
    "price": 0,
    "priceCurrency": "₱",
    "lat": 16.461066,
    "lng": 120.333904
  },
  {
    "id": 216,
    "name": "Home",
    "imageUrl": "https://raw.githubusercontent.com/markleygiron/Markley/master/msg6.png",
    "price": 0,
    "priceCurrency": "₱",
    "lat": 16.613524,
    "lng": 120.331632
  }
  
  
  
]
