[
  {
    "id": 213,
    "name": "El Nido, Palawan",
    "imageUrl": "https://raw.githubusercontent.com/markleygiron/Markley/master/11.jpg",
    "price": 200,
    "priceCurrency": "₱",
    "lat": 16.321309,
    "lng": 120.476085
  },
  {
    "id": 201,
    "name": "Boracay Island, Aklan",
    "imageUrl": "https://raw.githubusercontent.com/markleygiron/Markley/master/12.jpg",
    "priceCurrency": "₱",
    "price": 100.00,
    "lat": 16.609093,
    "lng": 120.286326
  },
  {
    "id": 148,
    "name": "Batanes Islands, Batanes",
    "imageUrl": "https://raw.githubusercontent.com/markleygiron/Markley/master/13.jpg",
    "priceCurrency": "₱",
    "price": 0,
    "lat": 16.6571, 
    "lng": 120.3202
  },
  {
    "id": 211,
    "name": "Camiguin Island, Camiguin",
    "imageUrl": "https://raw.githubusercontent.com/markleygiron/Markley/master/14.jpg",
    "price": 0,
    "priceCurrency": "₱",
    "lat": 16.856767,
    "lng": 120.372861
  },
  {
    "id": 205,
    "name": "Malapascua Island, Cebu",
    "imageUrl": "https://raw.githubusercontent.com/markleygiron/Markley/master/15.jpg",
    "price": 20.00,
    "priceCurrency": "₱",
    "lat": 16.847255,
    "lng": 120.351556
  },
  {
    "id": 210,
    "name": "Kalanggaman Island, Leyte",
    "imageUrl": "https://raw.githubusercontent.com/markleygiron/Markley/master/16.jpg",
    "price": 0,
    "priceCurrency": "₱",
    "lat": 16.621185,
    "lng": 120.317510
  },
  {
    "id": 212,
    "name": "Siargao Island, Surigao del Norte",
    "imageUrl": "https://raw.githubusercontent.com/markleygiron/Markley/master/17.jpg",
    "price": 0,
    "priceCurrency": "₱",
    "lat": 16.614796,
    "lng": 120.280463
  },
  {
    "id": 214,
    "name": "Puerto Princesa, Palawan",
    "imageUrl": "https://raw.githubusercontent.com/markleygiron/Markley/master/28.jpg",
    "price": 0,
    "priceCurrency": "₱",
    "lat": 16.617243,
    "lng": 120.319803
  },
  {
    "id": 215,
    "name": "Banaue Rice Terraces, Ifugao",
    "imageUrl": "https://raw.githubusercontent.com/markleygiron/Markley/master/29.jpg",
    "price": 0,
    "priceCurrency": "₱",
    "lat": 16.461066,
    "lng": 120.333904
  },
  {
    "id": 145,
    "name": "Tubbataha Reefs, Palawan",
    "imageUrl": "https://raw.githubusercontent.com/markleygiron/Markley/master/30.jpg",
    "priceCurrency": "₱",
    "price": 20,
    "lat": 16.643372,
    "lng": 120.448705
  }
  
  
  
]
